transforms: 
  - 
    header: 
      seq: 0
      stamp: 
        secs: 1741033070
        nsecs:  90786457
      frame_id: "/world_ned"
    child_frame_id: "/robotA/base_link"
    transform: 
      translation: 
        x: 3.000058492178077
        y: 3.0053725306577657
        z: 0.5973589090596156
      rotation: 
        x: -0.027551066306331456
        y: 0.026977083238775165
        z: 0.7062150869054018
        w: 0.7069465515528796
---
transforms: 
  - 
    header: 
      seq: 0
      stamp: 
        secs: 1741033070
        nsecs:  94193458
      frame_id: "/world_ned"
    child_frame_id: "/robotB/base_link"
    transform: 
      translation: 
        x: -3.000215720142351
        y: -2.994130073960463
        z: 0.5792771381074271
      rotation: 
        x: -0.028047203631301056
        y: 0.027188168090941007
        z: 0.7066901146545421
        w: 0.7064440811089533
---
transforms: 
  - 
    header: 
      seq: 0
      stamp: 
        secs: 1741033070
        nsecs: 101830720
      frame_id: "/world_ned"
    child_frame_id: "/robotA/base_link"
    transform: 
      translation: 
        x: 3.0000584864867497
        y: 3.005372529769404
        z: 0.5973584163519089
      rotation: 
        x: -0.02755107000290443
        y: 0.02697708539875046
        z: 0.706215086224912
        w: 0.7069465520061781
---
transforms: 
  - 
    header: 
      seq: 0
      stamp: 
        secs: 1741033070
        nsecs: 101916074
      frame_id: "/world_ned"
    child_frame_id: "/robotB/base_link"
    transform: 
      translation: 
        x: -3.000215719223712
        y: -2.994130070105958
        z: 0.5792769038160434
      rotation: 
        x: -0.02804720000702933
        y: 0.027188161475114412
        z: 0.706690114764119
        w: 0.7064440813978452
---
transforms: 
  - 
    header: 
      seq: 0
      stamp: 
        secs: 1741033070
        nsecs:  94990015
      frame_id: "robotA/bravo/jaws_base_link"
    child_frame_id: "robotA/bravo/finger_large_link"
    transform: 
      translation: 
        x: -0.0269
        y: 0.0
        z: 0.03976
      rotation: 
        x: 1.3773575238035024e-11
        y: -8.433882414037418e-28
        z: 1.0
        w: 6.123233995736766e-17
  - 
    header: 
      seq: 0
      stamp: 
        secs: 1741033070
        nsecs:  94990015
      frame_id: "robotA/bravo/jaws_base_link"
    child_frame_id: "robotA/bravo/finger_small_link"
    transform: 
      translation: 
        x: 0.0269
        y: 0.0
        z: 0.03976
      rotation: 
        x: -2.718457701892569e-12
        y: 1.6645752616201022e-28
        z: 1.0
        w: 6.123233995736766e-17
  - 
    header: 
      seq: 0
      stamp: 
        secs: 1741033070
        nsecs:  94990015
      frame_id: "robotA/bravo/base_link"
    child_frame_id: "robotA/bravo/link1"
    transform: 
      translation: 
        x: 0.0
        y: 0.0
        z: 0.0
      rotation: 
        x: 1.0
        y: 2.5037571419509904e-12
        z: -1.5331090848663028e-28
        w: 6.123233995736766e-17
  - 
    header: 
      seq: 0
      stamp: 
        secs: 1741033070
        nsecs:  94990015
      frame_id: "robotA/bravo/link1"
    child_frame_id: "robotA/bravo/link2"
    transform: 
      translation: 
        x: 0.046
        y: 0.0
        z: 0.0674
      rotation: 
        x: 0.7071067811865475
        y: -5.0200046387774406e-11
        z: 5.020004638777442e-11
        w: 0.7071067811865476
  - 
    header: 
      seq: 0
      stamp: 
        secs: 1741033070
        nsecs:  94990015
      frame_id: "robotA/bravo/link2"
    child_frame_id: "robotA/bravo/link3"
    transform: 
      translation: 
        x: 0.2906
        y: 0.0
        z: 0.0
      rotation: 
        x: 0.0
        y: 0.0
        z: -7.162092713710657e-10
        w: 1.0
  - 
    header: 
      seq: 0
      stamp: 
        secs: 1741033070
        nsecs:  94990015
      frame_id: "robotA/bravo/link3"
    child_frame_id: "robotA/bravo/link4"
    transform: 
      translation: 
        x: 0.0408
        y: -0.09695
        z: 0.0
      rotation: 
        x: 7.701595191062197e-11
        y: -0.7071067811865475
        z: 0.7071067811865476
        w: 7.70160385062276e-11
  - 
    header: 
      seq: 0
      stamp: 
        secs: 1741033070
        nsecs:  94990015
      frame_id: "robotA/bravo/link4"
    child_frame_id: "robotA/bravo/link5"
    transform: 
      translation: 
        x: -0.0408
        y: 0.0
        z: 0.063
      rotation: 
        x: -0.7071067811865475
        y: 4.935645154831346e-17
        z: 4.935645154831347e-17
        w: 0.7071067811865476
  - 
    header: 
      seq: 0
      stamp: 
        secs: 1741033070
        nsecs:  94990015
      frame_id: "robotA/bravo/link5"
    child_frame_id: "robotA/bravo/link6"
    transform: 
      translation: 
        x: 0.0408
        y: -0.08863
        z: 0.0
      rotation: 
        x: 0.7071067811865475
        y: 4.925494882734695e-13
        z: -4.925494882734696e-13
        w: 0.7071067811865476
---
transforms: 
  - 
    header: 
      seq: 0
      stamp: 
        secs: 1741033070
        nsecs: 108041763
      frame_id: "/world_ned"
    child_frame_id: "/robotB/base_link"
    transform: 
      translation: 
        x: -3.000215718327909
        y: -2.994130066252537
        z: 0.5792766696749314
      rotation: 
        x: -0.028047196207078254
        y: 0.027188155052421368
        z: 0.7066901148810966
        w: 0.7064440816788755
---
transforms: 
  - 
    header: 
      seq: 0
      stamp: 
        secs: 1741033070
        nsecs: 107992172
      frame_id: "/world_ned"
    child_frame_id: "/robotA/base_link"
    transform: 
      translation: 
        x: 3.000058480775467
        y: 3.005372528884987
        z: 0.5973579237195683
      rotation: 
        x: -0.0275510735609065
        y: 0.02697708762749813
        z: 0.7062150855541551
        w: 0.7069465524525297
---
transforms: 
  - 
    header: 
      seq: 0
      stamp: 
        secs: 1741033070
        nsecs: 120602846
      frame_id: "/world_ned"
    child_frame_id: "/robotA/base_link"
    transform: 
      translation: 
        x: 3.000058475044154
        y: 3.005372527995736
        z: 0.5973574310252472
      rotation: 
        x: -0.027551077040809387
        y: 0.02697708999042816
        z: 0.7062150848914629
        w: 0.7069465528887483
---
transforms: 
  - 
    header: 
      seq: 0
      stamp: 
        secs: 1741033070
        nsecs: 120684385
      frame_id: "/world_ned"
    child_frame_id: "/robotB/base_link"
    transform: 
      translation: 
        x: -3.0002157174358306
        y: -2.9941300624081193
        z: 0.5792764356221143
      rotation: 
        x: -0.02804719244990229
        y: 0.027188148732454908
        z: 0.7066901149970091
        w: 0.7064440819553195
---
transforms: 
  - 
    header: 
      seq: 0
      stamp: 
        secs: 1741033070
        nsecs: 128306388
      frame_id: "/world_ned"
    child_frame_id: "/robotB/base_link"
    transform: 
      translation: 
        x: -3.0002157165474777
        y: -2.994130058572706
        z: 0.5792762016575922
      rotation: 
        x: -0.02804718873550622
        y: 0.027188142515225635
        z: 0.706690115111856
        w: 0.706444082227177
---
transforms: 
  - 
    header: 
      seq: 0
      stamp: 
        secs: 1741033070
        nsecs: 128261566
      frame_id: "/world_ned"
    child_frame_id: "/robotA/base_link"
    transform: 
      translation: 
        x: 3.000058469292808
        y: 3.0053725271016525
        z: 0.597356938268945
      rotation: 
        x: -0.027551080442602575
        y: 0.026977092487544194
        z: 0.7062150842368358
        w: 0.7069465533148337
---
transforms: 
  - 
    header: 
      seq: 0
      stamp: 
        secs: 1741033070
        nsecs: 239062146
      frame_id: "world"
    child_frame_id: "world_ned"
    transform: 
      translation: 
        x: 0.0
        y: 0.0
        z: 0.0
      rotation: 
        x: 0.999999998926914
        y: 0.0
        z: 0.0
        w: 4.632679487995776e-05
---
transforms: 
  - 
    header: 
      seq: 0
      stamp: 
        secs: 1741033070
        nsecs: 140737295
      frame_id: "/world_ned"
    child_frame_id: "/robotB/base_link"
    transform: 
      translation: 
        x: -3.000215715669843
        y: -2.994130054746031
        z: 0.5792759677691841
      rotation: 
        x: -0.028047185005244453
        y: 0.02718813645504483
        z: 0.7066901152280581
        w: 0.7064440824922645
---
transforms: 
  - 
    header: 
      seq: 0
      stamp: 
        secs: 1741033070
        nsecs: 140640974
      frame_id: "/world_ned"
    child_frame_id: "/robotA/base_link"
    transform: 
      translation: 
        x: 3.0000584635410372
        y: 3.0053725262135127
        z: 0.597356445506411
      rotation: 
        x: -0.027551083831218893
        y: 0.026977094897690315
        z: 0.7062150835830063
        w: 0.7069465537439542
---
transforms: 
  - 
    header: 
      seq: 0
      stamp: 
        secs: 1741033070
        nsecs: 134989977
      frame_id: "robotA/bravo/jaws_base_link"
    child_frame_id: "robotA/bravo/finger_large_link"
    transform: 
      translation: 
        x: -0.0269
        y: 0.0
        z: 0.03976
      rotation: 
        x: 1.3774019366276152e-11
        y: -8.434154364151872e-28
        z: 1.0
        w: 6.123233995736766e-17
  - 
    header: 
      seq: 0
      stamp: 
        secs: 1741033070
        nsecs: 134989977
      frame_id: "robotA/bravo/jaws_base_link"
    child_frame_id: "robotA/bravo/finger_small_link"
    transform: 
      translation: 
        x: 0.0269
        y: 0.0
        z: 0.03976
      rotation: 
        x: -2.7188343092750014e-12
        y: 1.6648058671328177e-28
        z: 1.0
        w: 6.123233995736766e-17
  - 
    header: 
      seq: 0
      stamp: 
        secs: 1741033070
        nsecs: 134989977
      frame_id: "robotA/bravo/base_link"
    child_frame_id: "robotA/bravo/link1"
    transform: 
      translation: 
        x: 0.0
        y: 0.0
        z: 0.0
      rotation: 
        x: 1.0
        y: 2.5038241677358692e-12
        z: -1.533150126322759e-28
        w: 6.123233995736766e-17
  - 
    header: 
      seq: 0
      stamp: 
        secs: 1741033070
        nsecs: 134989977
      frame_id: "robotA/bravo/link1"
    child_frame_id: "robotA/bravo/link2"
    transform: 
      translation: 
        x: 0.046
        y: 0.0
        z: 0.0674
      rotation: 
        x: 0.7071067811865475
        y: -5.0201399205656137e-11
        z: 5.020139920565614e-11
        w: 0.7071067811865476
  - 
    header: 
      seq: 0
      stamp: 
        secs: 1741033070
        nsecs: 134989977
      frame_id: "robotA/bravo/link2"
    child_frame_id: "robotA/bravo/link3"
    transform: 
      translation: 
        x: 0.2906
        y: 0.0
        z: 0.0
      rotation: 
        x: 0.0
        y: 0.0
        z: -7.162285641627139e-10
        w: 1.0
  - 
    header: 
      seq: 0
      stamp: 
        secs: 1741033070
        nsecs: 134989977
      frame_id: "robotA/bravo/link3"
    child_frame_id: "robotA/bravo/link4"
    transform: 
      translation: 
        x: 0.0408
        y: -0.09695
        z: 0.0
      rotation: 
        x: 7.701802541090863e-11
        y: -0.7071067811865475
        z: 0.7071067811865476
        w: 7.701811200651427e-11
  - 
    header: 
      seq: 0
      stamp: 
        secs: 1741033070
        nsecs: 134989977
      frame_id: "robotA/bravo/link4"
    child_frame_id: "robotA/bravo/link5"
    transform: 
      translation: 
        x: -0.0408
        y: 0.0
        z: 0.063
      rotation: 
        x: -0.7071067811865475
        y: 3.2382893425628505e-17
        z: 3.238289342562852e-17
        w: 0.7071067811865476
  - 
    header: 
      seq: 0
      stamp: 
        secs: 1741033070
        nsecs: 134989977
      frame_id: "robotA/bravo/link5"
    child_frame_id: "robotA/bravo/link6"
    transform: 
      translation: 
        x: 0.0408
        y: -0.08863
        z: 0.0
      rotation: 
        x: 0.7071067811865475
        y: 4.925603880730452e-13
        z: -4.925603880730454e-13
        w: 0.7071067811865476
---
transforms: 
  - 
    header: 
      seq: 0
      stamp: 
        secs: 1741033070
        nsecs: 148289442
      frame_id: "/world_ned"
    child_frame_id: "/robotA/base_link"
    transform: 
      translation: 
        x: 3.00005845778884
        y: 3.0053725253313184
        z: 0.5973559527376449
      rotation: 
        x: -0.027551087206648138
        y: 0.026977097220870053
        z: 0.7062150829299756
        w: 0.7069465541761096
---
transforms: 
  - 
    header: 
      seq: 0
      stamp: 
        secs: 1741033070
        nsecs: 148345708
      frame_id: "/world_ned"
    child_frame_id: "/robotB/base_link"
    transform: 
      translation: 
        x: -3.000215714802927
        y: -2.9941300509280944
        z: 0.5792757339568901
      rotation: 
        x: -0.028047181259121614
        y: 0.0271881305519224
        z: 0.7066901153456153
        w: 0.7064440827505817
---
transforms: 
  - 
    header: 
      seq: 0
      stamp: 
        secs: 1741033070
        nsecs: 161334037
      frame_id: "/world_ned"
    child_frame_id: "/robotA/base_link"
    transform: 
      translation: 
        x: 3.000058452038074
        y: 3.005372524444115
        z: 0.5973554600780413
      rotation: 
        x: -0.027551090660838846
        y: 0.026977099521504278
        z: 0.7062150822746227
        w: 0.7069465546083756
---
transforms: 
  - 
    header: 
      seq: 0
      stamp: 
        secs: 1741033070
        nsecs: 161352396
      frame_id: "/world_ned"
    child_frame_id: "/robotB/base_link"
    transform: 
      translation: 
        x: -3.000215713941481
        y: -2.994130047120394
        z: 0.5792755002735313
      rotation: 
        x: -0.028047177551656498
        y: 0.02718812477556388
        z: 0.7066901154623764
        w: 0.7064440830032817
---
transforms: 
  - 
    header: 
      seq: 0
      stamp: 
        secs: 1741033070
        nsecs: 168387174
      frame_id: "/world_ned"
    child_frame_id: "/robotB/base_link"
    transform: 
      translation: 
        x: -3.0002157130855056
        y: -2.994130043322931
        z: 0.5792752667191077
      rotation: 
        x: -0.028047173882854274
        y: 0.027188119125978735
        z: 0.7066901155783416
        w: 0.7064440832503637
---
transforms: 
  - 
    header: 
      seq: 0
      stamp: 
        secs: 1741033070
        nsecs: 168342351
      frame_id: "/world_ned"
    child_frame_id: "/robotA/base_link"
    transform: 
      translation: 
        x: 3.00005844628874
        y: 3.0053725235519027
        z: 0.5973549675276
      rotation: 
        x: -0.027551094193780563
        y: 0.02697710179959679
        z: 0.7062150816169482
        w: 0.7069465550407519
---
transforms: 
  - 
    header: 
      seq: 0
      stamp: 
        secs: 1741033070
        nsecs: 279911121
      frame_id: "world"
    child_frame_id: "world_ned"
    transform: 
      translation: 
        x: 0.0
        y: 0.0
        z: 0.0
      rotation: 
        x: 0.999999998926914
        y: 0.0
        z: 0.0
        w: 4.632679487995776e-05
---
transforms: 
  - 
    header: 
      seq: 0
      stamp: 
        secs: 1741033070
        nsecs: 181180477
      frame_id: "/world_ned"
    child_frame_id: "/robotA/base_link"
    transform: 
      translation: 
        x: 3.000058440528405
        y: 3.005372522653256
        z: 0.5973544751837401
      rotation: 
        x: -0.02755109772613204
        y: 0.02697710415797279
        z: 0.7062150809626164
        w: 0.7069465554667483
---
transforms: 
  - 
    header: 
      seq: 0
      stamp: 
        secs: 1741033070
        nsecs: 181266069
      frame_id: "/world_ned"
    child_frame_id: "/robotB/base_link"
    transform: 
      translation: 
        x: -3.000215712233261
        y: -2.994130039532005
        z: 0.5792750331012537
      rotation: 
        x: -0.028047170236808694
        y: 0.027188113559260166
        z: 0.7066901156938789
        w: 0.7064440834937812
---
transforms: 
  - 
    header: 
      seq: 0
      stamp: 
        secs: 1741033070
        nsecs: 174989939
      frame_id: "robotA/bravo/jaws_base_link"
    child_frame_id: "robotA/bravo/finger_large_link"
    transform: 
      translation: 
        x: -0.0269
        y: 0.0
        z: 0.03976
      rotation: 
        x: 1.3774179669904163e-11
        y: -8.434252521814339e-28
        z: 1.0
        w: 6.123233995736766e-17
  - 
    header: 
      seq: 0
      stamp: 
        secs: 1741033070
        nsecs: 174989939
      frame_id: "robotA/bravo/jaws_base_link"
    child_frame_id: "robotA/bravo/finger_small_link"
    transform: 
      translation: 
        x: 0.0269
        y: 0.0
        z: 0.03976
      rotation: 
        x: -2.7190635193720844e-12
        y: 1.6649462178386803e-28
        z: 1.0
        w: 6.123233995736766e-17
  - 
    header: 
      seq: 0
      stamp: 
        secs: 1741033070
        nsecs: 174989939
      frame_id: "robotA/bravo/base_link"
    child_frame_id: "robotA/bravo/link1"
    transform: 
      translation: 
        x: 0.0
        y: 0.0
        z: 0.0
      rotation: 
        x: 1.0
        y: 2.5037082405874818e-12
        z: -1.5330791414171555e-28
        w: 6.123233995736766e-17
  - 
    header: 
      seq: 0
      stamp: 
        secs: 1741033070
        nsecs: 174989939
      frame_id: "robotA/bravo/link1"
    child_frame_id: "robotA/bravo/link2"
    transform: 
      translation: 
        x: 0.046
        y: 0.0
        z: 0.0674
      rotation: 
        x: 0.7071067811865475
        y: -5.019903895880109e-11
        z: 5.01990389588011e-11
        w: 0.7071067811865476
  - 
    header: 
      seq: 0
      stamp: 
        secs: 1741033070
        nsecs: 174989939
      frame_id: "robotA/bravo/link2"
    child_frame_id: "robotA/bravo/link3"
    transform: 
      translation: 
        x: 0.2906
        y: 0.0
        z: 0.0
      rotation: 
        x: 0.0
        y: 0.0
        z: -7.161948956747944e-10
        w: 1.0
  - 
    header: 
      seq: 0
      stamp: 
        secs: 1741033070
        nsecs: 174989939
      frame_id: "robotA/bravo/link3"
    child_frame_id: "robotA/bravo/link4"
    transform: 
      translation: 
        x: 0.0408
        y: -0.09695
        z: 0.0
      rotation: 
        x: 7.701441395867655e-11
        y: -0.7071067811865475
        z: 0.7071067811865476
        w: 7.70145005542822e-11
  - 
    header: 
      seq: 0
      stamp: 
        secs: 1741033070
        nsecs: 174989939
      frame_id: "robotA/bravo/link4"
    child_frame_id: "robotA/bravo/link5"
    transform: 
      translation: 
        x: -0.0408
        y: 0.0
        z: 0.063
      rotation: 
        x: -0.7071067811865475
        y: 2.124964992709053e-17
        z: 2.1249649927090537e-17
        w: 0.7071067811865476
  - 
    header: 
      seq: 0
      stamp: 
        secs: 1741033070
        nsecs: 174989939
      frame_id: "robotA/bravo/link5"
    child_frame_id: "robotA/bravo/link6"
    transform: 
      translation: 
        x: 0.0408
        y: -0.08863
        z: 0.0
      rotation: 
        x: 0.7071067811865475
        y: 4.925287922622545e-13
        z: -4.925287922622546e-13
        w: 0.7071067811865476
---
transforms: 
  - 
    header: 
      seq: 0
      stamp: 
        secs: 1741033070
        nsecs: 188432455
      frame_id: "/world_ned"
    child_frame_id: "/robotA/base_link"
    transform: 
      translation: 
        x: 3.000058434757068
        y: 3.0053725217481766
        z: 0.5973539830464615
      rotation: 
        x: -0.02755110125788275
        y: 0.02697710659663552
        z: 0.7062150803116278
        w: 0.7069465558863647
---
transforms: 
  - 
    header: 
      seq: 0
      stamp: 
        secs: 1741033070
        nsecs: 188493251
      frame_id: "/world_ned"
    child_frame_id: "/robotB/base_link"
    transform: 
      translation: 
        x: -3.0002157113847487
        y: -2.9941300357476157
        z: 0.5792747994199695
      rotation: 
        x: -0.028047166613524573
        y: 0.02718810807541716
        z: 0.7066901158089881
        w: 0.7064440837335336
---
transforms: 
  - 
    header: 
      seq: 0
      stamp: 
        secs: 1741033070
        nsecs: 201316118
      frame_id: "/world_ned"
    child_frame_id: "/robotB/base_link"
    transform: 
      translation: 
        x: -3.0002157105409766
        y: -2.994130031972913
        z: 0.5792745657694887
      rotation: 
        x: -0.028047163030333225
        y: 0.027188102708013296
        z: 0.7066901159231979
        w: 0.7064440839681126
---
transforms: 
  - 
    header: 
      seq: 0
      stamp: 
        secs: 1741033070
        nsecs: 201256752
      frame_id: "/world_ned"
    child_frame_id: "/robotA/base_link"
    transform: 
      translation: 
        x: 3.0000584289739227
        y: 3.005372520837505
        z: 0.597353491019391
      rotation: 
        x: -0.02755110477685452
        y: 0.026977109121026126
        z: 0.7062150796644415
        w: 0.7069465562994091
---
transforms: 
  - 
    header: 
      seq: 0
      stamp: 
        secs: 1741033070
        nsecs: 208771944
      frame_id: "/world_ned"
    child_frame_id: "/robotA/base_link"
    transform: 
      translation: 
        x: 3.000058423178969
        y: 3.005372519921242
        z: 0.5973529991025283
      rotation: 
        x: -0.027551108283036956
        y: 0.026977111731147745
        z: 0.7062150790210586
        w: 0.7069465567058811
---
transforms: 
  - 
    header: 
      seq: 0
      stamp: 
        secs: 1741033070
        nsecs: 208887100
      frame_id: "/world_ned"
    child_frame_id: "/robotB/base_link"
    transform: 
      translation: 
        x: -3.000215709701947
        y: -2.994130028207897
        z: 0.579274332149811
      rotation: 
        x: -0.028047159487239418
        y: 0.02718809745705729
        z: 0.7066901160365082
        w: 0.7064440841975178
---
transforms: 
  - 
    header: 
      seq: 0
      stamp: 
        secs: 1741033070
        nsecs: 221173048
      frame_id: "/world_ned"
    child_frame_id: "/robotA/base_link"
    transform: 
      translation: 
        x: 3.0000584173659983
        y: 3.00537251900309
        z: 0.5973525074098588
      rotation: 
        x: -0.027551111704125976
        y: 0.026977114449484984
        z: 0.7062150783853125
        w: 0.7069465571039109
---
transforms: 
  - 
    header: 
      seq: 0
      stamp: 
        secs: 1741033070
        nsecs: 221304655
      frame_id: "/world_ned"
    child_frame_id: "/robotB/base_link"
    transform: 
      translation: 
        x: -3.000215708868651
        y: -2.9941300244577063
        z: 0.5792740985722733
      rotation: 
        x: -0.028047156017792268
        y: 0.02718809237201686
        z: 0.7066901161479305
        w: 0.7064440844195023
---
transforms: 
  - 
    header: 
      seq: 0
      stamp: 
        secs: 1741033070
        nsecs: 214989901
      frame_id: "robotA/bravo/jaws_base_link"
    child_frame_id: "robotA/bravo/finger_large_link"
    transform: 
      translation: 
        x: -0.0269
        y: 0.0
        z: 0.03976
      rotation: 
        x: 1.3774214201743355e-11
        y: -8.434273666467507e-28
        z: 1.0
        w: 6.123233995736766e-17
  - 
    header: 
      seq: 0
      stamp: 
        secs: 1741033070
        nsecs: 214989901
      frame_id: "robotA/bravo/jaws_base_link"
    child_frame_id: "robotA/bravo/finger_small_link"
    transform: 
      translation: 
        x: 0.0269
        y: 0.0
        z: 0.03976
      rotation: 
        x: -2.7192055596144995e-12
        y: 1.665033192402792e-28
        z: 1.0
        w: 6.123233995736766e-17
  - 
    header: 
      seq: 0
      stamp: 
        secs: 1741033070
        nsecs: 214989901
      frame_id: "robotA/bravo/base_link"
    child_frame_id: "robotA/bravo/link1"
    transform: 
      translation: 
        x: 0.0
        y: 0.0
        z: 0.0
      rotation: 
        x: 1.0
        y: 2.5036792459720707e-12
        z: -1.5330613873356777e-28
        w: 6.123233995736766e-17
  - 
    header: 
      seq: 0
      stamp: 
        secs: 1741033070
        nsecs: 214989901
      frame_id: "robotA/bravo/link1"
    child_frame_id: "robotA/bravo/link2"
    transform: 
      translation: 
        x: 0.046
        y: 0.0
        z: 0.0674
      rotation: 
        x: 0.7071067811865475
        y: -5.0198452847042844e-11
        z: 5.019845284704285e-11
        w: 0.7071067811865476
  - 
    header: 
      seq: 0
      stamp: 
        secs: 1741033070
        nsecs: 214989901
      frame_id: "robotA/bravo/link2"
    child_frame_id: "robotA/bravo/link3"
    transform: 
      translation: 
        x: 0.2906
        y: 0.0
        z: 0.0
      rotation: 
        x: 0.0
        y: 0.0
        z: -7.161865324905173e-10
        w: 1.0
  - 
    header: 
      seq: 0
      stamp: 
        secs: 1741033070
        nsecs: 214989901
      frame_id: "robotA/bravo/link3"
    child_frame_id: "robotA/bravo/link4"
    transform: 
      translation: 
        x: 0.0408
        y: -0.09695
        z: 0.0
      rotation: 
        x: 7.701351617570714e-11
        y: -0.7071067811865475
        z: 0.7071067811865476
        w: 7.701360277131277e-11
  - 
    header: 
      seq: 0
      stamp: 
        secs: 1741033070
        nsecs: 214989901
      frame_id: "robotA/bravo/link4"
    child_frame_id: "robotA/bravo/link5"
    transform: 
      translation: 
        x: -0.0408
        y: 0.0
        z: 0.063
      rotation: 
        x: -0.7071067811865475
        y: 1.394197350317757e-17
        z: 1.3941973503177573e-17
        w: 0.7071067811865476
  - 
    header: 
      seq: 0
      stamp: 
        secs: 1741033070
        nsecs: 214989901
      frame_id: "robotA/bravo/link5"
    child_frame_id: "robotA/bravo/link6"
    transform: 
      translation: 
        x: 0.0408
        y: -0.08863
        z: 0.0
      rotation: 
        x: 0.7071067811865475
        y: 4.925206029421159e-13
        z: -4.925206029421161e-13
        w: 0.7071067811865476
---
transforms: 
  - 
    header: 
      seq: 0
      stamp: 
        secs: 1741033070
        nsecs: 228666543
      frame_id: "/world_ned"
    child_frame_id: "/robotA/base_link"
    transform: 
      translation: 
        x: 3.000058411535009
        y: 3.0053725180830506
        z: 0.597352015941382
      rotation: 
        x: -0.02755111504011148
        y: 0.02697711727604063
        z: 0.706215077757204
        w: 0.706946557493498
---
transforms: 
  - 
    header: 
      seq: 0
      stamp: 
        secs: 1741033070
        nsecs: 228790760
      frame_id: "/world_ned"
    child_frame_id: "/robotB/base_link"
    transform: 
      translation: 
        x: -3.0002157080410905
        y: -2.9941300207223396
        z: 0.5792738650368753
      rotation: 
        x: -0.02804715262199615
        y: 0.027188087452900193
        z: 0.7066901162574647
        w: 0.7064440846340657
---
transforms: 
  - 
    header: 
      seq: 0
      stamp: 
        secs: 1741033070
        nsecs: 339145865
      frame_id: "world"
    child_frame_id: "world_ned"
    transform: 
      translation: 
        x: 0.0
        y: 0.0
        z: 0.0
      rotation: 
        x: 0.999999998926914
        y: 0.0
        z: 0.0
        w: 4.632679487995776e-05
---
transforms: 
  - 
    header: 
      seq: 0
      stamp: 
        secs: 1741033070
        nsecs: 241176843
      frame_id: "/world_ned"
    child_frame_id: "/robotB/base_link"
    transform: 
      translation: 
        x: -3.0002157072172584
        y: -2.994130016991432
        z: 0.5792736316778287
      rotation: 
        x: -0.028047149232164958
        y: 0.027188082599869667
        z: 0.7066901163671051
        w: 0.7064440848457427
---
transforms: 
  - 
    header: 
      seq: 0
      stamp: 
        secs: 1741033070
        nsecs: 241121292
      frame_id: "/world_ned"
    child_frame_id: "/robotA/base_link"
    transform: 
      translation: 
        x: 3.0000584056796105
        y: 3.0053725171599566
        z: 0.5973515248680668
      rotation: 
        x: -0.027551118251118667
        y: 0.026977120270469165
        z: 0.7062150771396956
        w: 0.7069465578709605
---
transforms: 
  - 
    header: 
      seq: 0
      stamp: 
        secs: 1741033070
        nsecs: 234990120
      frame_id: "robotA/bravo/jaws_base_link"
    child_frame_id: "robotA/bravo/finger_large_link"
    transform: 
      translation: 
        x: -0.0269
        y: 0.0
        z: 0.03976
      rotation: 
        x: 1.3774102984284502e-11
        y: -8.43420556541501e-28
        z: 1.0
        w: 6.123233995736766e-17
  - 
    header: 
      seq: 0
      stamp: 
        secs: 1741033070
        nsecs: 234990120
      frame_id: "robotA/bravo/jaws_base_link"
    child_frame_id: "robotA/bravo/finger_small_link"
    transform: 
      translation: 
        x: 0.0269
        y: 0.0
        z: 0.03976
      rotation: 
        x: -2.719233729355345e-12
        y: 1.6650504413942717e-28
        z: 1.0
        w: 6.123233995736766e-17
  - 
    header: 
      seq: 0
      stamp: 
        secs: 1741033070
        nsecs: 234990120
      frame_id: "robotA/bravo/base_link"
    child_frame_id: "robotA/bravo/link1"
    transform: 
      translation: 
        x: 0.0
        y: 0.0
        z: 0.0
      rotation: 
        x: 1.0
        y: 2.503560081099535e-12
        z: -1.5329884198958167e-28
        w: 6.123233995736766e-17
  - 
    header: 
      seq: 0
      stamp: 
        secs: 1741033070
        nsecs: 234990120
      frame_id: "robotA/bravo/link1"
    child_frame_id: "robotA/bravo/link2"
    transform: 
      translation: 
        x: 0.046
        y: 0.0
        z: 0.0674
      rotation: 
        x: 0.7071067811865475
        y: -5.0196035236231174e-11
        z: 5.019603523623118e-11
        w: 0.7071067811865476
  - 
    header: 
      seq: 0
      stamp: 
        secs: 1741033070
        nsecs: 234990120
      frame_id: "robotA/bravo/link2"
    child_frame_id: "robotA/bravo/link3"
    transform: 
      translation: 
        x: 0.2906
        y: 0.0
        z: 0.0
      rotation: 
        x: 0.0
        y: 0.0
        z: -7.161520465282543e-10
        w: 1.0
  - 
    header: 
      seq: 0
      stamp: 
        secs: 1741033070
        nsecs: 234990120
      frame_id: "robotA/bravo/link3"
    child_frame_id: "robotA/bravo/link4"
    transform: 
      translation: 
        x: 0.0408
        y: -0.09695
        z: 0.0
      rotation: 
        x: 7.700981456735545e-11
        y: -0.7071067811865475
        z: 0.7071067811865476
        w: 7.700990116296108e-11
  - 
    header: 
      seq: 0
      stamp: 
        secs: 1741033070
        nsecs: 234990120
      frame_id: "robotA/bravo/link4"
    child_frame_id: "robotA/bravo/link5"
    transform: 
      translation: 
        x: -0.0408
        y: 0.0
        z: 0.063
      rotation: 
        x: -0.7071067811865475
        y: 1.1293975772565382e-17
        z: 1.1293975772565385e-17
        w: 0.7071067811865476
  - 
    header: 
      seq: 0
      stamp: 
        secs: 1741033070
        nsecs: 234990120
      frame_id: "robotA/bravo/link5"
    child_frame_id: "robotA/bravo/link6"
    transform: 
      translation: 
        x: 0.0408
        y: -0.08863
        z: 0.0
      rotation: 
        x: 0.7071067811865475
        y: 4.924916114301933e-13
        z: -4.924916114301934e-13
        w: 0.7071067811865476
---
transforms: 
  - 
    header: 
      seq: 0
      stamp: 
        secs: 1741033070
        nsecs: 248862028
      frame_id: "/world_ned"
    child_frame_id: "/robotA/base_link"
    transform: 
      translation: 
        x: 3.000058399799801
        y: 3.0053725162338094
        z: 0.5973510341899131
      rotation: 
        x: -0.02755112133713805
        y: 0.02697712343277215
        z: 0.7062150765327878
        w: 0.7069465582362982
---
transforms: 
  - 
    header: 
      seq: 0
      stamp: 
        secs: 1741033070
        nsecs: 249038696
      frame_id: "/world_ned"
    child_frame_id: "/robotB/base_link"
    transform: 
      translation: 
        x: -3.0002157063971557
        y: -2.994130013264984
        z: 0.5792733984951337
      rotation: 
        x: -0.028047145848303073
        y: 0.027188077812933142
        z: 0.7066901164768513
        w: 0.706444085054533
---
transforms: 
  - 
    header: 
      seq: 0
      stamp: 
        secs: 1741033070
        nsecs: 261557340
      frame_id: "/world_ned"
    child_frame_id: "/robotA/base_link"
    transform: 
      translation: 
        x: 3.000058393902781
        y: 3.005372515305114
        z: 0.5973505439988731
      rotation: 
        x: -0.02755112434585079
        y: 0.02697712671485081
        z: 0.7062150759327164
        w: 0.7069465585932491
---
transforms: 
  - 
    header: 
      seq: 0
      stamp: 
        secs: 1741033070
        nsecs: 261587142
      frame_id: "/world_ned"
    child_frame_id: "/robotB/base_link"
    transform: 
      translation: 
        x: -3.0002157055788046
        y: -2.9941300095501626
        z: 0.5792731655138579
      rotation: 
        x: -0.028047142544375885
        y: 0.02718807313394286
        z: 0.7066901165841936
        w: 0.7064440852584002
---
transforms: 
  - 
    header: 
      seq: 0
      stamp: 
        secs: 1741033070
        nsecs: 269017696
      frame_id: "/world_ned"
    child_frame_id: "/robotA/base_link"
    transform: 
      translation: 
        x: 3.000058387988551
        y: 3.00537251437387
        z: 0.5973500542949464
      rotation: 
        x: -0.02755112727724769
        y: 0.02697713011670627
        z: 0.706215075339481
        w: 0.706946558941813
---
transforms: 
  - 
    header: 
      seq: 0
      stamp: 
        secs: 1741033070
        nsecs: 269545316
      frame_id: "/world_ned"
    child_frame_id: "/robotB/base_link"
    transform: 
      translation: 
        x: -3.0002157047622053
        y: -2.994130005846966
        z: 0.5792729327340012
      rotation: 
        x: -0.028047139320387687
        y: 0.027188068562906346
        z: 0.7066901166891316
        w: 0.7064440854573439
---
transforms: 
  - 
    header: 
      seq: 0
      stamp: 
        secs: 1741033070
        nsecs: 379993996
      frame_id: "world"
    child_frame_id: "world_ned"
    transform: 
      translation: 
        x: 0.0
        y: 0.0
        z: 0.0
      rotation: 
        x: 0.999999998926914
        y: 0.0
        z: 0.0
        w: 4.632679487995776e-05
---
transforms: 
  - 
    header: 
      seq: 0
      stamp: 
        secs: 1741033070
        nsecs: 281736612
      frame_id: "/world_ned"
    child_frame_id: "/robotA/base_link"
    transform: 
      translation: 
        x: 3.0000583820558013
        y: 3.0053725134435036
        z: 0.5973495649774311
      rotation: 
        x: -0.027551130102124764
        y: 0.026977133632207433
        z: 0.7062150747540865
        w: 0.7069465592823589
---
transforms: 
  - 
    header: 
      seq: 0
      stamp: 
        secs: 1741033070
        nsecs: 281884670
      frame_id: "/world_ned"
    child_frame_id: "/robotB/base_link"
    transform: 
      translation: 
        x: -3.000215703944514
        y: -2.9941300021477173
        z: 0.579272700062655
      rotation: 
        x: -0.02804713613715727
        y: 0.027188064014895704
        z: 0.7066901167926865
        w: 0.706444085655167
---
transforms: 
  - 
    header: 
      seq: 0
      stamp: 
        secs: 1741033070
        nsecs: 274990082
      frame_id: "robotA/bravo/jaws_base_link"
    child_frame_id: "robotA/bravo/finger_large_link"
    transform: 
      translation: 
        x: -0.0269
        y: 0.0
        z: 0.03976
      rotation: 
        x: 1.3773745574869938e-11
        y: -8.433986715267245e-28
        z: 1.0
        w: 6.123233995736766e-17
  - 
    header: 
      seq: 0
      stamp: 
        secs: 1741033070
        nsecs: 274990082
      frame_id: "robotA/bravo/jaws_base_link"
    child_frame_id: "robotA/bravo/finger_small_link"
    transform: 
      translation: 
        x: 0.0269
        y: 0.0
        z: 0.03976
      rotation: 
        x: -2.7192384814134673e-12
        y: 1.6650533511906562e-28
        z: 1.0
        w: 6.123233995736766e-17
  - 
    header: 
      seq: 0
      stamp: 
        secs: 1741033070
        nsecs: 274990082
      frame_id: "robotA/bravo/base_link"
    child_frame_id: "robotA/bravo/link1"
    transform: 
      translation: 
        x: 0.0
        y: 0.0
        z: 0.0
      rotation: 
        x: 1.0
        y: 2.5035210599264287e-12
        z: -1.532964526318445e-28
        w: 6.123233995736766e-17
  - 
    header: 
      seq: 0
      stamp: 
        secs: 1741033070
        nsecs: 274990082
      frame_id: "robotA/bravo/link1"
    child_frame_id: "robotA/bravo/link2"
    transform: 
      translation: 
        x: 0.046
        y: 0.0
        z: 0.0674
      rotation: 
        x: 0.7071067811865475
        y: -5.019526432006731e-11
        z: 5.0195264320067326e-11
        w: 0.7071067811865476
  - 
    header: 
      seq: 0
      stamp: 
        secs: 1741033070
        nsecs: 274990082
      frame_id: "robotA/bravo/link2"
    child_frame_id: "robotA/bravo/link3"
    transform: 
      translation: 
        x: 0.2906
        y: 0.0
        z: 0.0
      rotation: 
        x: 0.0
        y: 0.0
        z: -7.161410437724731e-10
        w: 1.0
  - 
    header: 
      seq: 0
      stamp: 
        secs: 1741033070
        nsecs: 274990082
      frame_id: "robotA/bravo/link3"
    child_frame_id: "robotA/bravo/link4"
    transform: 
      translation: 
        x: 0.0408
        y: -0.09695
        z: 0.0
      rotation: 
        x: 7.700862896547055e-11
        y: -0.7071067811865475
        z: 0.7071067811865476
        w: 7.700871556107619e-11
  - 
    header: 
      seq: 0
      stamp: 
        secs: 1741033070
        nsecs: 274990082
      frame_id: "robotA/bravo/link4"
    child_frame_id: "robotA/bravo/link5"
    transform: 
      translation: 
        x: -0.0408
        y: 0.0
        z: 0.063
      rotation: 
        x: -0.7071067811865475
        y: 7.411676841523079e-18
        z: 7.411676841523082e-18
        w: 0.7071067811865476
  - 
    header: 
      seq: 0
      stamp: 
        secs: 1741033070
        nsecs: 274990082
      frame_id: "robotA/bravo/link5"
    child_frame_id: "robotA/bravo/link6"
    transform: 
      translation: 
        x: 0.0408
        y: -0.08863
        z: 0.0
      rotation: 
        x: 0.7071067811865475
        y: 4.924850573674836e-13
        z: -4.924850573674837e-13
        w: 0.7071067811865476
---
transforms: 
  - 
    header: 
      seq: 0
      stamp: 
        secs: 1741033070
        nsecs: 289089679
      frame_id: "/world_ned"
    child_frame_id: "/robotA/base_link"
    transform: 
      translation: 
        x: 3.000058376104532
        y: 3.0053725125140147
        z: 0.5973490760463267
      rotation: 
        x: -0.027551132820473265
        y: 0.02697713726135493
        z: 0.706215074176533
        w: 0.7069465596148868
---
transforms: 
  - 
    header: 
      seq: 0
      stamp: 
        secs: 1741033070
        nsecs: 289128541
      frame_id: "/world_ned"
    child_frame_id: "/robotB/base_link"
    transform: 
      translation: 
        x: -3.0002157031257313
        y: -2.9941299984524155
        z: 0.5792724674998195
      rotation: 
        x: -0.028047132994688938
        y: 0.027188059489918127
        z: 0.7066901168948578
        w: 0.7064440858518692
---
transforms: 
  - 
    header: 
      seq: 0
      stamp: 
        secs: 1741033070
        nsecs: 302108049
      frame_id: "/world_ned"
    child_frame_id: "/robotB/base_link"
    transform: 
      translation: 
        x: -3.000215702323281
        y: -2.994129994762095
        z: 0.5792722351455939
      rotation: 
        x: -0.02804712976060071
        y: 0.027188055137018958
        z: 0.7066901170012396
        w: 0.7064440860413743
---
transforms: 
  - 
    header: 
      seq: 0
      stamp: 
        secs: 1741033070
        nsecs: 302071809
      frame_id: "/world_ned"
    child_frame_id: "/robotA/base_link"
    transform: 
      translation: 
        x: 3.0000583701513786
        y: 3.005372511595047
        z: 0.5973485872532829
      rotation: 
        x: -0.027551135479939804
        y: 0.026977140821044607
        z: 0.7062150736018572
        w: 0.7069465599494851
---
transforms: 
  - 
    header: 
      seq: 0
      stamp: 
        secs: 1741033070
        nsecs: 309466361
      frame_id: "/world_ned"
    child_frame_id: "/robotA/base_link"
    transform: 
      translation: 
        x: 3.0000583641963385
        y: 3.0053725106866
        z: 0.5973480985982991
      rotation: 
        x: -0.027551138080516097
        y: 0.026977144311277085
        z: 0.7062150730300599
        w: 0.7069465602861534
---
transforms: 
  - 
    header: 
      seq: 0
      stamp: 
        secs: 1741033070
        nsecs: 309478759
      frame_id: "/world_ned"
    child_frame_id: "/robotB/base_link"
    transform: 
      translation: 
        x: -3.0002157015371647
        y: -2.994129991076756
        z: 0.579272002999978
      rotation: 
        x: -0.028047126434896947
        y: 0.027188050956205377
        z: 0.7066901171118323
        w: 0.7064440862236817
---
transforms: 
  - 
    header: 
      seq: 0
      stamp: 
        secs: 1741033070
        nsecs: 321734905
      frame_id: "/world_ned"
    child_frame_id: "/robotB/base_link"
    transform: 
      translation: 
        x: -3.0002157007530825
        y: -2.9941299873974048
        z: 0.5792717708376345
      rotation: 
        x: -0.02804712314122213
        y: 0.027188046840127923
        z: 0.7066901172215672
        w: 0.7064440864030839
---
transforms: 
  - 
    header: 
      seq: 0
      stamp: 
        secs: 1741033070
        nsecs: 321699619
      frame_id: "/world_ned"
    child_frame_id: "/robotA/base_link"
    transform: 
      translation: 
        x: 3.000058358234208
        y: 3.0053725097821666
        z: 0.5973476100887418
      rotation: 
        x: -0.027551140627327782
        y: 0.026977147812942227
        z: 0.706215072462069
        w: 0.7069465606206784
---
transforms: 
  - 
    header: 
      seq: 0
      stamp: 
        secs: 1741033070
        nsecs: 314990044
      frame_id: "robotA/bravo/jaws_base_link"
    child_frame_id: "robotA/bravo/finger_large_link"
    transform: 
      translation: 
        x: -0.0269
        y: 0.0
        z: 0.03976
      rotation: 
        x: 1.3773769594284868e-11
        y: -8.434001422917052e-28
        z: 1.0
        w: 6.123233995736766e-17
  - 
    header: 
      seq: 0
      stamp: 
        secs: 1741033070
        nsecs: 314990044
      frame_id: "robotA/bravo/jaws_base_link"
    child_frame_id: "robotA/bravo/finger_small_link"
    transform: 
      translation: 
        x: 0.0269
        y: 0.0
        z: 0.03976
      rotation: 
        x: -2.7192964808086843e-12
        y: 1.6650888655775087e-28
        z: 1.0
        w: 6.123233995736766e-17
  - 
    header: 
      seq: 0
      stamp: 
        secs: 1741033070
        nsecs: 314990044
      frame_id: "robotA/bravo/base_link"
    child_frame_id: "robotA/bravo/link1"
    transform: 
      translation: 
        x: 0.0
        y: 0.0
        z: 0.0
      rotation: 
        x: 1.0
        y: 2.503680396556216e-12
        z: -1.533062091865273e-28
        w: 6.123233995736766e-17
  - 
    header: 
      seq: 0
      stamp: 
        secs: 1741033070
        nsecs: 314990044
      frame_id: "robotA/bravo/link1"
    child_frame_id: "robotA/bravo/link2"
    transform: 
      translation: 
        x: 0.046
        y: 0.0
        z: 0.0674
      rotation: 
        x: 0.7071067811865475
        y: -5.0198509406787086e-11
        z: 5.019850940678709e-11
        w: 0.7071067811865476
  - 
    header: 
      seq: 0
      stamp: 
        secs: 1741033070
        nsecs: 314990044
      frame_id: "robotA/bravo/link2"
    child_frame_id: "robotA/bravo/link3"
    transform: 
      translation: 
        x: 0.2906
        y: 0.0
        z: 0.0
      rotation: 
        x: 0.0
        y: 0.0
        z: -7.161873284190529e-10
        w: 1.0
  - 
    header: 
      seq: 0
      stamp: 
        secs: 1741033070
        nsecs: 314990044
      frame_id: "robotA/bravo/link3"
    child_frame_id: "robotA/bravo/link4"
    transform: 
      translation: 
        x: 0.0408
        y: -0.09695
        z: 0.0
      rotation: 
        x: 7.70135944840685e-11
        y: -0.7071067811865475
        z: 0.7071067811865476
        w: 7.701368107967415e-11
  - 
    header: 
      seq: 0
      stamp: 
        secs: 1741033070
        nsecs: 314990044
      frame_id: "robotA/bravo/link4"
    child_frame_id: "robotA/bravo/link5"
    transform: 
      translation: 
        x: -0.0408
        y: 0.0
        z: 0.063
      rotation: 
        x: -0.7071067811865475
        y: 4.860276596161945e-18
        z: 4.860276596161946e-18
        w: 0.7071067811865476
  - 
    header: 
      seq: 0
      stamp: 
        secs: 1741033070
        nsecs: 314990044
      frame_id: "robotA/bravo/link5"
    child_frame_id: "robotA/bravo/link6"
    transform: 
      translation: 
        x: 0.0408
        y: -0.08863
        z: 0.0
      rotation: 
        x: 0.7071067811865475
        y: 4.925246251540711e-13
        z: -4.925246251540712e-13
        w: 0.7071067811865476
---
transforms: 
  - 
    header: 
      seq: 0
      stamp: 
        secs: 1741033070
        nsecs: 329844951
      frame_id: "/world_ned"
    child_frame_id: "/robotA/base_link"
    transform: 
      translation: 
        x: 3.000058352264986
        y: 3.005372508881748
        z: 0.5973471217246111
      rotation: 
        x: -0.027551143120367022
        y: 0.02697715132604094
        z: 0.706215071897885
        w: 0.7069465609530596
---
transforms: 
  - 
    header: 
      seq: 0
      stamp: 
        secs: 1741033070
        nsecs: 329869747
      frame_id: "/world_ned"
    child_frame_id: "/robotB/base_link"
    transform: 
      translation: 
        x: -3.0002156999710343
        y: -2.9941299837240423
        z: 0.5792715386585625
      rotation: 
        x: -0.028047119879580862
        y: 0.02718804278879306
        z: 0.7066901173304444
        w: 0.7064440865795807
---
transforms: 
  - 
    header: 
      seq: 0
      stamp: 
        secs: 1741033070
        nsecs: 439226908
      frame_id: "world"
    child_frame_id: "world_ned"
    transform: 
      translation: 
        x: 0.0
        y: 0.0
        z: 0.0
      rotation: 
        x: 0.999999998926914
        y: 0.0
        z: 0.0
        w: 4.632679487995776e-05
---
transforms: 
  - 
    header: 
      seq: 0
      stamp: 
        secs: 1741033070
        nsecs: 342136859
      frame_id: "/world_ned"
    child_frame_id: "/robotA/base_link"
    transform: 
      translation: 
        x: 3.000058346297218
        y: 3.0053725079899665
        z: 0.5973466333262045
      rotation: 
        x: -0.02755114558750584
        y: 0.026977154753376847
        z: 0.7062150713343787
        w: 0.706946561289046
---
transforms: 
  - 
    header: 
      seq: 0
      stamp: 
        secs: 1741033070
        nsecs: 342267274
      frame_id: "/world_ned"
    child_frame_id: "/robotB/base_link"
    transform: 
      translation: 
        x: -3.0002156991871267
        y: -2.9941299800568273
        z: 0.5792713065996267
      rotation: 
        x: -0.02804711668271561
        y: 0.027188038772045692
        z: 0.7066901174371131
        w: 0.7064440867543837
---
transforms: 
  - 
    header: 
      seq: 0
      stamp: 
        secs: 1741033070
        nsecs: 349403142
      frame_id: "/world_ned"
    child_frame_id: "/robotA/base_link"
    transform: 
      translation: 
        x: 3.0000583403309022
        y: 3.005372507106823
        z: 0.5973461448935214
      rotation: 
        x: -0.027551148028736407
        y: 0.026977158094951006
        z: 0.7062150707715505
        w: 0.7069465616286372
---
transforms: 
  - 
    header: 
      seq: 0
      stamp: 
        secs: 1741033070
        nsecs: 349445581
      frame_id: "/world_ned"
    child_frame_id: "/robotB/base_link"
    transform: 
      translation: 
        x: -3.0002156984013584
        y: -2.9941299763957616
        z: 0.5792710746608263
      rotation: 
        x: -0.028047113550630793
        y: 0.02718803478989205
        z: 0.7066901175415734
        w: 0.7064440869274926
---
transforms: 
  - 
    header: 
      seq: 0
      stamp: 
        secs: 1741033070
        nsecs: 363116502
      frame_id: "/world_ned"
    child_frame_id: "/robotA/base_link"
    transform: 
      translation: 
        x: 3.000058334360257
        y: 3.0053725062277064
        z: 0.5973456566333148
      rotation: 
        x: -0.027551150433618492
        y: 0.026977161425005905
        z: 0.7062150702112885
        w: 0.7069465619675211
---
transforms: 
  - 
    header: 
      seq: 0
      stamp: 
        secs: 1741033070
        nsecs: 363141775
      frame_id: "/world_ned"
    child_frame_id: "/robotB/base_link"
    transform: 
      translation: 
        x: -3.0002156976110905
        y: -2.994129972744479
        z: 0.5792708427758556
      rotation: 
        x: -0.028047110534067617
        y: 0.027188030850335998
        z: 0.7066901176420016
        w: 0.7064440870984093
---
transforms: 
  - 
    header: 
      seq: 0
      stamp: 
        secs: 1741033070
        nsecs: 354990005
      frame_id: "robotA/bravo/jaws_base_link"
    child_frame_id: "robotA/bravo/finger_large_link"
    transform: 
      translation: 
        x: -0.0269
        y: 0.0
        z: 0.03976
      rotation: 
        x: 1.3773960784664369e-11
        y: -8.434118493260192e-28
        z: 1.0
        w: 6.123233995736766e-17
  - 
    header: 
      seq: 0
      stamp: 
        secs: 1741033070
        nsecs: 354990005
      frame_id: "robotA/bravo/jaws_base_link"
    child_frame_id: "robotA/bravo/finger_small_link"
    transform: 
      translation: 
        x: 0.0269
        y: 0.0
        z: 0.03976
      rotation: 
        x: -2.719371225706455e-12
        y: 1.6651346336274124e-28
        z: 1.0
        w: 6.123233995736766e-17
  - 
    header: 
      seq: 0
      stamp: 
        secs: 1741033070
        nsecs: 354990005
      frame_id: "robotA/bravo/base_link"
    child_frame_id: "robotA/bravo/link1"
    transform: 
      translation: 
        x: 0.0
        y: 0.0
        z: 0.0
      rotation: 
        x: 1.0
        y: 2.5036651531310685e-12
        z: -1.5330527579593655e-28
        w: 6.123233995736766e-17
  - 
    header: 
      seq: 0
      stamp: 
        secs: 1741033070
        nsecs: 354990005
      frame_id: "robotA/bravo/link1"
    child_frame_id: "robotA/bravo/link2"
    transform: 
      translation: 
        x: 0.046
        y: 0.0
        z: 0.0674
      rotation: 
        x: 0.7071067811865475
        y: -5.019818996158661e-11
        z: 5.0198189961586625e-11
        w: 0.7071067811865476
  - 
    header: 
      seq: 0
      stamp: 
        secs: 1741033070
        nsecs: 354990005
      frame_id: "robotA/bravo/link2"
    child_frame_id: "robotA/bravo/link3"
    transform: 
      translation: 
        x: 0.2906
        y: 0.0
        z: 0.0
      rotation: 
        x: 0.0
        y: 0.0
        z: -7.161827739361769e-10
        w: 1.0
  - 
    header: 
      seq: 0
      stamp: 
        secs: 1741033070
        nsecs: 354990005
      frame_id: "robotA/bravo/link3"
    child_frame_id: "robotA/bravo/link4"
    transform: 
      translation: 
        x: 0.0408
        y: -0.09695
        z: 0.0
      rotation: 
        x: 7.701310804404881e-11
        y: -0.7071067811865475
        z: 0.7071067811865476
        w: 7.701319463965445e-11
  - 
    header: 
      seq: 0
      stamp: 
        secs: 1741033070
        nsecs: 354990005
      frame_id: "robotA/bravo/link4"
    child_frame_id: "robotA/bravo/link5"
    transform: 
      translation: 
        x: -0.0408
        y: 0.0
        z: 0.063
      rotation: 
        x: -0.7071067811865475
        y: 3.1920533588104333e-18
        z: 3.192053358810434e-18
        w: 0.7071067811865476
  - 
    header: 
      seq: 0
      stamp: 
        secs: 1741033070
        nsecs: 354990005
      frame_id: "robotA/bravo/link5"
    child_frame_id: "robotA/bravo/link6"
    transform: 
      translation: 
        x: 0.0408
        y: -0.08863
        z: 0.0
      rotation: 
        x: 0.7071067811865475
        y: 4.925188400380099e-13
        z: -4.9251884003801e-13
        w: 0.7071067811865476
---
transforms: 
  - 
    header: 
      seq: 0
      stamp: 
        secs: 1741033070
        nsecs: 369575262
      frame_id: "/world_ned"
    child_frame_id: "/robotA/base_link"
    transform: 
      translation: 
        x: 3.0000583283852804
        y: 3.005372505352616
        z: 0.5973451685455843
      rotation: 
        x: -0.027551152802144395
        y: 0.026977164743542798
        z: 0.7062150696535933
        w: 0.7069465623056972
---
transforms: 
  - 
    header: 
      seq: 0
      stamp: 
        secs: 1741033070
        nsecs: 369663953
      frame_id: "/world_ned"
    child_frame_id: "/robotB/base_link"
    transform: 
      translation: 
        x: -3.000215696816323
        y: -2.9941299691029797
        z: 0.5792706109447144
      rotation: 
        x: -0.02804710763303018
        y: 0.027188026953384212
        z: 0.7066901177383975
        w: 0.7064440872671334
---
transforms: 
  - 
    header: 
      seq: 0
      stamp: 
        secs: 1741033070
        nsecs: 480070420
      frame_id: "world"
    child_frame_id: "world_ned"
    transform: 
      translation: 
        x: 0.0
        y: 0.0
        z: 0.0
      rotation: 
        x: 0.999999998926914
        y: 0.0
        z: 0.0
        w: 4.632679487995776e-05
---
transforms: 
  - 
    header: 
      seq: 0
      stamp: 
        secs: 1741033070
        nsecs: 382648229
      frame_id: "/world_ned"
    child_frame_id: "/robotB/base_link"
    transform: 
      translation: 
        x: -3.0002156960286572
        y: -2.994129965474782
        z: 0.5792703791770735
      rotation: 
        x: -0.028047104782268923
        y: 0.027188023221097136
        z: 0.7066901178337575
        w: 0.7064440874285605
---
transforms: 
  - 
    header: 
      seq: 0
      stamp: 
        secs: 1741033070
        nsecs: 382582426
      frame_id: "/world_ned"
    child_frame_id: "/robotA/base_link"
    transform: 
      translation: 
        x: 3.000058322406984
        y: 3.0053725044827626
        z: 0.5973446804613141
      rotation: 
        x: -0.027551155131972753
        y: 0.0269771680336248
        z: 0.7062150690982941
        w: 0.7069465626440737
---
transforms: 
  - 
    header: 
      seq: 0
      stamp: 
        secs: 1741033070
        nsecs: 389717102
      frame_id: "/world_ned"
    child_frame_id: "/robotB/base_link"
    transform: 
      translation: 
        x: -3.000215695248093
        y: -2.9941299618598856
        z: 0.5792701474729327
      rotation: 
        x: -0.02804710198178763
        y: 0.027188019653480913
        z: 0.7066901179280813
        w: 0.7064440875826903
---
transforms: 
  - 
    header: 
      seq: 0
      stamp: 
        secs: 1741033070
        nsecs: 389747381
      frame_id: "/world_ned"
    child_frame_id: "/robotA/base_link"
    transform: 
      translation: 
        x: 3.000058316425367
        y: 3.0053725036181453
        z: 0.5973441923805038
      rotation: 
        x: -0.02755115742309584
        y: 0.026977171295253448
        z: 0.7062150685453913
        w: 0.7069465629826506
---
transforms: 
  - 
    header: 
      seq: 0
      stamp: 
        secs: 1741033070
        nsecs: 402240276
      frame_id: "/world_ned"
    child_frame_id: "/robotA/base_link"
    transform: 
      translation: 
        x: 3.000058310437638
        y: 3.005372502753648
        z: 0.597343704402958
      rotation: 
        x: -0.02755115969088388
        y: 0.026977174585592203
        z: 0.706215067995199
        w: 0.7069465633183336
---
transforms: 
  - 
    header: 
      seq: 0
      stamp: 
        secs: 1741033070
        nsecs: 402297019
      frame_id: "/world_ned"
    child_frame_id: "/robotB/base_link"
    transform: 
      translation: 
        x: -3.0002156944752922
        y: -2.9941299582553893
        z: 0.5792699157851476
      rotation: 
        x: -0.02804709920276662
        y: 0.027188016232463055
        z: 0.7066901180223383
        w: 0.706444087730393
---
transforms: 
  - 
    header: 
      seq: 0
      stamp: 
        secs: 1741033070
        nsecs: 394989967
      frame_id: "robotA/bravo/jaws_base_link"
    child_frame_id: "robotA/bravo/finger_large_link"
    transform: 
      translation: 
        x: -0.0269
        y: 0.0
        z: 0.03976
      rotation: 
        x: 1.377408967245023e-11
        y: -8.434197414267395e-28
        z: 1.0
        w: 6.123233995736766e-17
  - 
    header: 
      seq: 0
      stamp: 
        secs: 1741033070
        nsecs: 394989967
      frame_id: "robotA/bravo/jaws_base_link"
    child_frame_id: "robotA/bravo/finger_small_link"
    transform: 
      translation: 
        x: 0.0269
        y: 0.0
        z: 0.03976
      rotation: 
        x: -2.719421656286306e-12
        y: 1.6651655134515093e-28
        z: 1.0
        w: 6.123233995736766e-17
  - 
    header: 
      seq: 0
      stamp: 
        secs: 1741033070
        nsecs: 394989967
      frame_id: "robotA/bravo/base_link"
    child_frame_id: "robotA/bravo/link1"
    transform: 
      translation: 
        x: 0.0
        y: 0.0
        z: 0.0
      rotation: 
        x: 1.0
        y: 2.5037190258664697e-12
        z: -1.5330857454958505e-28
        w: 6.123233995736766e-17
  - 
    header: 
      seq: 0
      stamp: 
        secs: 1741033070
        nsecs: 394989967
      frame_id: "robotA/bravo/link1"
    child_frame_id: "robotA/bravo/link2"
    transform: 
      translation: 
        x: 0.046
        y: 0.0
        z: 0.0674
      rotation: 
        x: 0.7071067811865475
        y: -5.0199280658358875e-11
        z: 5.019928065835888e-11
        w: 0.7071067811865476
  - 
    header: 
      seq: 0
      stamp: 
        secs: 1741033070
        nsecs: 394989967
      frame_id: "robotA/bravo/link2"
    child_frame_id: "robotA/bravo/link3"
    transform: 
      translation: 
        x: 0.2906
        y: 0.0
        z: 0.0
      rotation: 
        x: 0.0
        y: 0.0
        z: -7.161983321262214e-10
        w: 1.0
  - 
    header: 
      seq: 0
      stamp: 
        secs: 1741033070
        nsecs: 394989967
      frame_id: "robotA/bravo/link3"
    child_frame_id: "robotA/bravo/link4"
    transform: 
      translation: 
        x: 0.0408
        y: -0.09695
        z: 0.0
      rotation: 
        x: 7.701477866420709e-11
        y: -0.7071067811865475
        z: 0.7071067811865476
        w: 7.701486525981272e-11
  - 
    header: 
      seq: 0
      stamp: 
        secs: 1741033070
        nsecs: 394989967
      frame_id: "robotA/bravo/link4"
    child_frame_id: "robotA/bravo/link5"
    transform: 
      translation: 
        x: -0.0408
        y: 0.0
        z: 0.063
      rotation: 
        x: -0.7071067811865475
        y: 2.092681979048455e-18
        z: 2.0926819790484552e-18
        w: 0.7071067811865476
  - 
    header: 
      seq: 0
      stamp: 
        secs: 1741033070
        nsecs: 394989967
      frame_id: "robotA/bravo/link5"
    child_frame_id: "robotA/bravo/link6"
    transform: 
      translation: 
        x: 0.0408
        y: -0.08863
        z: 0.0
      rotation: 
        x: 0.7071067811865475
        y: 4.92531033553906e-13
        z: -4.925310335539062e-13
        w: 0.7071067811865476
---
transforms: 
  - 
    header: 
      seq: 0
      stamp: 
        secs: 1741033070
        nsecs: 410578727
      frame_id: "/world_ned"
    child_frame_id: "/robotB/base_link"
    transform: 
      translation: 
        x: -3.000215693710254
        y: -2.9941299546612936
